{
"type": "FeatureCollection",
"name": "Transport for London Stations",
"crs": { "type": "name", "properties": { "name": "urn:ogc:def:crs:OGC:1.3:CRS84" } },
"features": [
{ "type": "Feature", "properties": { "Name": "Acton Town Station", "description": "Acton Town Station, London Underground Ltd., Gunnersbury Lane, London, W3 8HN" }, "geometry": { "type": "Point", "coordinates": [ -0.280251203536111, 51.502749773000573 ] } },
{ "type": "Feature", "properties": { "Name": "Aldgate Station", "description": "Aldgate Station, London Underground Ltd., Aldgate High St, London, EC3N 1AH" }, "geometry": { "type": "Point", "coordinates": [ -0.07561418447775, 51.514271823083391 ] } },
{ "type": "Feature", "properties": { "Name": "Aldgate East Station", "description": "Aldgate East Station, London Underground Ltd., Whitechapel High St, London, E1 7PT" }, "geometry": { "type": "Point", "coordinates": [ -0.072287119975365, 51.51523341379648 ] } },
{ "type": "Feature", "properties": { "Name": "Alperton Station", "description": "Alperton Station, London Underground Ltd., Ealing Rd, Wembley, Middlesex, HA0 4LL" }, "geometry": { "type": "Point", "coordinates": [ -0.299486538678611, 51.54069476629347 ] } },
{ "type": "Feature", "properties": { "Name": "Amersham Station", "description": "Amersham Station, Stn Approach, Amersham, Bucks, HP6 5AZ" }, "geometry": { "type": "Point", "coordinates": [ -0.607478839102469, 51.674149710629727 ] } },
{ "type": "Feature", "properties": { "Name": "Angel Station", "description": "Angel Station, London Underground Ltd., City Rd, London, EC1V 1NE" }, "geometry": { "type": "Point", "coordinates": [ -0.105789913665305, 51.532498868904298 ] } },
{ "type": "Feature", "properties": { "Name": "Archway Station", "description": "Archway Station, London Underground Ltd., Junction Rd, London, N19 5RQ" }, "geometry": { "type": "Point", "coordinates": [ -0.135113518210335, 51.565426754533753 ] } },
{ "type": "Feature", "properties": { "Name": "Arnos Grove Station", "description": "Arnos Grove Station, London Underground Ltd., Bowes Rd, London, N11 1AN" }, "geometry": { "type": "Point", "coordinates": [ -0.13351630958178, 51.616340261056756 ] } },
{ "type": "Feature", "properties": { "Name": "Arsenal Station", "description": "Arsenal Station, London Underground Ltd., Highbury Hill, London, N5 1LP" }, "geometry": { "type": "Point", "coordinates": [ -0.105761988175558, 51.55849876877668 ] } },
{ "type": "Feature", "properties": { "Name": "Baker Street Station", "description": "Baker Street Station Marylebone Rd, London, NW1" }, "geometry": { "type": "Point", "coordinates": [ -0.156900356057781, 51.523061248142788 ] } },
{ "type": "Feature", "properties": { "Name": "Balham Station", "description": "Balham Underground Station, London Underground Ltd., Balham High Rd, London, SW12 9BW" }, "geometry": { "type": "Point", "coordinates": [ -0.153207552666473, 51.443328979635247 ] } },
{ "type": "Feature", "properties": { "Name": "Bank Station", "description": "Bank\/Monument Complex, London Underground Ltd., Princes St, London, EC3V 3LA" }, "geometry": { "type": "Point", "coordinates": [ -0.08891580904526, 51.513302371519345 ] } },
{ "type": "Feature", "properties": { "Name": "Barbican Station", "description": "Barbican Station, London Underground Ltd., Aldersgate St, London, EC1A 4JA" }, "geometry": { "type": "Point", "coordinates": [ -0.097711123216248, 51.520145725324902 ] } },
{ "type": "Feature", "properties": { "Name": "Barking Station", "description": "Barking Station BR Station Parade, Longbridge Rd, Barking, Essex, IG11 8TU" }, "geometry": { "type": "Point", "coordinates": [ 0.08086318284941, 51.539451208515715 ] } },
{ "type": "Feature", "properties": { "Name": "Barkingside Station", "description": "Barkingside Station, London Underground Ltd., Stn Rd, Barkingside, Milford, Essex, IG6 1NB" }, "geometry": { "type": "Point", "coordinates": [ 0.088511013821779, 51.585785960390545 ] } },
{ "type": "Feature", "properties": { "Name": "Barons Court Station", "description": "Barons Court Station, London Underground Ltd., Pallister Rd, London, W14" }, "geometry": { "type": "Point", "coordinates": [ -0.213606857361082, 51.490159942708935 ] } },
{ "type": "Feature", "properties": { "Name": "Bayswater Station", "description": "Bayswater Station, London Underground Ltd., Queensway, London, W2 4QH" }, "geometry": { "type": "Point", "coordinates": [ -0.188038262221618, 51.51223305874106 ] } },
{ "type": "Feature", "properties": { "Name": "Becontree Station", "description": "Becontree Station, London Underground Ltd., Gale St, Dagenham, Essex, RM9 4TP" }, "geometry": { "type": "Point", "coordinates": [ 0.127400321155281, 51.540288535204702 ] } },
{ "type": "Feature", "properties": { "Name": "Belsize Park Station", "description": "Belsize Park Station, London Underground Ltd., Haverstock Hill, London, NW3 2AL" }, "geometry": { "type": "Point", "coordinates": [ -0.164232306333818, 51.550426627718238 ] } },
{ "type": "Feature", "properties": { "Name": "Bermondsey Station", "description": "Bermondsey Station, London Underground Ltd., 142 - 154 Jamaica Rd, London, SE16 4RX" }, "geometry": { "type": "Point", "coordinates": [ -0.063651350918079, 51.49794911958157 ] } },
{ "type": "Feature", "properties": { "Name": "Bethnal Green Station", "description": "Bethnal Green Underground Station, London Underground Ltd., Cambridge Heath Rd, London, E2 0ET" }, "geometry": { "type": "Point", "coordinates": [ -0.055431117145884, 51.527195236069566 ] } },
{ "type": "Feature", "properties": { "Name": "Blackfriars Station", "description": "Blackfriars Underground Station, London Underground Ltd., 179 Queen Victoria St, London, EC4V 4DD" }, "geometry": { "type": "Point", "coordinates": [ -0.103606731219863, 51.511490522247492 ] } },
{ "type": "Feature", "properties": { "Name": "Blackhorse Road Station", "description": "Blackhorse Road Underground Station, London Underground Ltd., Blackhorse Rd, London, E17 6ND" }, "geometry": { "type": "Point", "coordinates": [ -0.040996340920371, 51.586951195438928 ] } },
{ "type": "Feature", "properties": { "Name": "Bond Street Station", "description": "Bond Street Station, London Underground Ltd., Oxford St, London, W1R 1FE" }, "geometry": { "type": "Point", "coordinates": [ -0.149332354586202, 51.513804535388068 ] } },
{ "type": "Feature", "properties": { "Name": "Borough Station", "description": "Borough Station, London Underground Ltd., Borough High St, London, SE1 1JX" }, "geometry": { "type": "Point", "coordinates": [ -0.093702664758373, 51.501193998928507 ] } },
{ "type": "Feature", "properties": { "Name": "Boston Manor Station", "description": "Boston Manor Station, London Underground Ltd., Boston Manor Rd, Brentford, Middx, TW8 9LQ" }, "geometry": { "type": "Point", "coordinates": [ -0.324763573796374, 51.495696382188164 ] } },
{ "type": "Feature", "properties": { "Name": "Bounds Green Station", "description": "Bounds Green Station, London Underground Ltd., Bounds Green Rd, London, N11 2EU" }, "geometry": { "type": "Point", "coordinates": [ -0.124218963208537, 51.607090556952755 ] } },
{ "type": "Feature", "properties": { "Name": "Bow Road Station", "description": "Bow Road Station, London Underground Ltd., Bow Road, London, E3 4DH" }, "geometry": { "type": "Point", "coordinates": [ -0.024823746874529, 51.526800254826064 ] } },
{ "type": "Feature", "properties": { "Name": "Brent Cross Station", "description": "Brent Cross Station, London Underground Ltd., Highfield Avenue, London, NW11 9UA" }, "geometry": { "type": "Point", "coordinates": [ -0.213455833755365, 51.576800471443867 ] } },
{ "type": "Feature", "properties": { "Name": "Brixton Station", "description": "Brixton Underground Station, London Underground Ltd., Brixton Rd, London, SW9 8HE" }, "geometry": { "type": "Point", "coordinates": [ -0.114635581578616, 51.462581333631725 ] } },
{ "type": "Feature", "properties": { "Name": "Buckhurst Hill Station", "description": "Buckhurst Hill Station, London Underground Ltd., Victoria Rd, Buckhurst Hill, Essex, IG9 5ET" }, "geometry": { "type": "Point", "coordinates": [ 0.046743856240496, 51.626517330409435 ] } },
{ "type": "Feature", "properties": { "Name": "Burnt Oak Station", "description": "Burnt Oak Station, London Underground Ltd., Watling Avenue, Edgware, Middx, HA8 0LA" }, "geometry": { "type": "Point", "coordinates": [ -0.26419875814563, 51.602681099702551 ] } },
{ "type": "Feature", "properties": { "Name": "Caledonian Road Station", "description": "Caledonian Road Underground Station, London Underground Ltd., Caledonian Rd, London, N7 9BA" }, "geometry": { "type": "Point", "coordinates": [ -0.118312333133272, 51.548421318403776 ] } },
{ "type": "Feature", "properties": { "Name": "Camden Town Station", "description": "Camden Town Station, London Underground Ltd., Camden High St, London, NW1 8NH" }, "geometry": { "type": "Point", "coordinates": [ -0.142726148730286, 51.53940352263109 ] } },
{ "type": "Feature", "properties": { "Name": "Canada Water Station", "description": "Canada Water Station, London Underground Ltd., Deal Porter Way, Surrey Quays, London, SE16" }, "geometry": { "type": "Point", "coordinates": [ -0.049705986794378, 51.497888681995114 ] } },
{ "type": "Feature", "properties": { "Name": "Canary Wharf Station", "description": "Canary Wharf Station, London Underground Ltd., Heron Quays Road, Canary Wharf, London, E14 4HJ" }, "geometry": { "type": "Point", "coordinates": [ -0.019431816253263, 51.503550485647594 ] } },
{ "type": "Feature", "properties": { "Name": "Canning Town Station", "description": "Canning Town Station, London Underground Ltd., Silvertown Way, Canning Town, London, E16 1DQ" }, "geometry": { "type": "Point", "coordinates": [ 0.008171036532588, 51.51383712928957 ] } },
{ "type": "Feature", "properties": { "Name": "Cannon Street Station", "description": "Cannon Street Underground Station, London Underground Ltd., Cannon St, London, EC4N 6AP" }, "geometry": { "type": "Point", "coordinates": [ -0.090694850680981, 51.511433722337301 ] } },
{ "type": "Feature", "properties": { "Name": "Canons Park Station", "description": "Canons Park Station, London Underground Ltd., Whitchurch Lane, Edgware, Middx, HA8 6RN" }, "geometry": { "type": "Point", "coordinates": [ -0.294653740878427, 51.607759515215321 ] } },
{ "type": "Feature", "properties": { "Name": "Chalfont & Latimer Station", "description": "Chalfont & Latimer Station, London Underground Ltd., Station Approach, Little Chalfont, Amersham, Bucks, HP7 9PR" }, "geometry": { "type": "Point", "coordinates": [ -0.560534956448776, 51.668025473926093 ] } },
{ "type": "Feature", "properties": { "Name": "Chalk Farm Station", "description": "Chalk Farm Station, London Underground Ltd., Adelaide Rd, London, NW3 2BP" }, "geometry": { "type": "Point", "coordinates": [ -0.153728009451251, 51.544083102422633 ] } },
{ "type": "Feature", "properties": { "Name": "Chancery Lane Station", "description": "Chancery Lane Station, London Underground Ltd., High Holborn, London, WC1V 6DR" }, "geometry": { "type": "Point", "coordinates": [ -0.111677427383971, 51.518123230614442 ] } },
{ "type": "Feature", "properties": { "Name": "Charing Cross Station", "description": "Charing Cross Underground Station, London Underground Ltd., Trafalgar Square, London, WC2N 5DR" }, "geometry": { "type": "Point", "coordinates": [ -0.124754686624366, 51.508593207603191 ] } },
{ "type": "Feature", "properties": { "Name": "Chesham Station", "description": "Chesham Station, London Underground Ltd., Station Approach, Chesham, Bucks, HP5 1DH" }, "geometry": { "type": "Point", "coordinates": [ -0.61121924632491, 51.705030454829611 ] } },
{ "type": "Feature", "properties": { "Name": "Chigwell Station", "description": "Chigwell Station, London Underground Ltd., Station Rd, Chigwell, Essex, IG7 6NT" }, "geometry": { "type": "Point", "coordinates": [ 0.074526611263723, 51.617871925405097 ] } },
{ "type": "Feature", "properties": { "Name": "Chiswick Park Station", "description": "Chiswick Park Station, London Underground Ltd., Bollo Lane, London, W4 5NE" }, "geometry": { "type": "Point", "coordinates": [ -0.267746873913726, 51.494300591745144 ] } },
{ "type": "Feature", "properties": { "Name": "Chorleywood Station", "description": "Chorleywood Station, London Underground Ltd., Station Approach, Chorleywood, Rickmansworth, Herts, WD3 5ND" }, "geometry": { "type": "Point", "coordinates": [ -0.518365989763054, 51.654217860774502 ] } },
{ "type": "Feature", "properties": { "Name": "Clapham Common Station", "description": "Clapham Common Station, London Underground Ltd., The Pavement, London, SW4 7AJ" }, "geometry": { "type": "Point", "coordinates": [ -0.138311459464252, 51.461727933283946 ] } },
{ "type": "Feature", "properties": { "Name": "Clapham North Station", "description": "Clapham North Station, London Underground Ltd., Clapham High St, London, SW4 7TS" }, "geometry": { "type": "Point", "coordinates": [ -0.129531053727598, 51.464843732027759 ] } },
{ "type": "Feature", "properties": { "Name": "Clapham South Station", "description": "Clapham South Station, London Underground Ltd., Balham Hill, London, SW12 9DU" }, "geometry": { "type": "Point", "coordinates": [ -0.147982098639174, 51.452599834714476 ] } },
{ "type": "Feature", "properties": { "Name": "Cockfosters Station", "description": "Cockfosters Station, London Underground Ltd., Cockfosters Rd, Barnet, Herts, EN4 0DZ" }, "geometry": { "type": "Point", "coordinates": [ -0.149614715155878, 51.651687534574954 ] } },
{ "type": "Feature", "properties": { "Name": "Colindale Station", "description": "Colindale Station, London Underground Ltd., Colindale Avenue, London, NW9 5HR" }, "geometry": { "type": "Point", "coordinates": [ -0.250142587760252, 51.595286518799249 ] } },
{ "type": "Feature", "properties": { "Name": "Colliers Wood Station", "description": "Colliers Wood Station, London Underground Ltd., Colliers Wood High St, London, SW19 2HR" }, "geometry": { "type": "Point", "coordinates": [ -0.177700936628786, 51.418071885122643 ] } },
{ "type": "Feature", "properties": { "Name": "Covent Garden Station", "description": "Covent Garden Station, London Underground Ltd., Long Acre, London, WC2E 9JT" }, "geometry": { "type": "Point", "coordinates": [ -0.124159260603113, 51.512909586141589 ] } },
{ "type": "Feature", "properties": { "Name": "Croxley Station", "description": "Croxley Station, London Underground Ltd., Watford Road, Rickmansworth, Herts, WD3 3DY" }, "geometry": { "type": "Point", "coordinates": [ -0.441710992609102, 51.647046338116361 ] } },
{ "type": "Feature", "properties": { "Name": "Dagenham East Station", "description": "Dagenham East Station, London Underground Ltd., North Rainham Rd, Dagenham, Essex, RM10 8AA" }, "geometry": { "type": "Point", "coordinates": [ 0.165874869677023, 51.544116734223607 ] } },
{ "type": "Feature", "properties": { "Name": "Dagenham Heathway Station", "description": "Dagenham Heathway Station, London Underground Ltd., Heathway, Dagenham, Essex, RM9 5AN" }, "geometry": { "type": "Point", "coordinates": [ 0.147684194913218, 51.54162741361619 ] } },
{ "type": "Feature", "properties": { "Name": "Debden Station", "description": "Debden Station, London Underground Ltd., Chigwell Lane, Loughton, Essex, IG10 3TG" }, "geometry": { "type": "Point", "coordinates": [ 0.083837809879712, 51.645434322048956 ] } },
{ "type": "Feature", "properties": { "Name": "Dollis Hill Station", "description": "Dollis Hill Station, London Underground Ltd., Hamilton Rd, London, NW10 5NB" }, "geometry": { "type": "Point", "coordinates": [ -0.238797558508157, 51.5519035590561 ] } },
{ "type": "Feature", "properties": { "Name": "Ealing Broadway Station", "description": "Ealing Broadway Station, The Broadway, London, W5 2NU" }, "geometry": { "type": "Point", "coordinates": [ -0.301500096369187, 51.514913033739163 ] } },
{ "type": "Feature", "properties": { "Name": "Ealing Common Station", "description": "Ealing Common Station, London Underground Ltd., Uxbridge Rd, London, W5 3LD" }, "geometry": { "type": "Point", "coordinates": [ -0.288260381056999, 51.510124738537847 ] } },
{ "type": "Feature", "properties": { "Name": "Earl's Court Station", "description": "Earl's Court Station, London Underground Ltd., Earl's Court Rd, London, SW5 9QA" }, "geometry": { "type": "Point", "coordinates": [ -0.193545854058734, 51.491803907898898 ] } },
{ "type": "Feature", "properties": { "Name": "East Acton Station", "description": "East Acton Station, London Underground Ltd., Erconwald St, London, W12 0BP" }, "geometry": { "type": "Point", "coordinates": [ -0.247513203550208, 51.51658219905417 ] } },
{ "type": "Feature", "properties": { "Name": "East Finchley Station", "description": "East Finchley Station, London Underground Ltd., High Rd, London, N2 0NW" }, "geometry": { "type": "Point", "coordinates": [ -0.164738305623224, 51.587271719132026 ] } },
{ "type": "Feature", "properties": { "Name": "East Ham Station", "description": "East Ham Station, London Underground Ltd., High Street North, London, E6 2JA" }, "geometry": { "type": "Point", "coordinates": [ 0.05147554883547, 51.538926036547579 ] } },
{ "type": "Feature", "properties": { "Name": "East Putney Station", "description": "East Putney Station, Upper Richmond Rd, London, SW15" }, "geometry": { "type": "Point", "coordinates": [ -0.211003174222271, 51.458804746349998 ] } },
{ "type": "Feature", "properties": { "Name": "Eastcote Station", "description": "Eastcote Station, London Underground Ltd., Field End Rd, Ruislip, Middx, HA5 1QZ" }, "geometry": { "type": "Point", "coordinates": [ -0.39684462718699, 51.576493044501653 ] } },
{ "type": "Feature", "properties": { "Name": "Edgware Station", "description": "Edgware Station, London Underground Ltd., Station Rd, Edgware, Middx, HA8 7AW" }, "geometry": { "type": "Point", "coordinates": [ -0.27497600604529, 51.613623079849461 ] } },
{ "type": "Feature", "properties": { "Name": "Elephant & Castle Station", "description": "Elephant & Castle Underground Station, London Underground Ltd., London Rd, London, SE1 6LW" }, "geometry": { "type": "Point", "coordinates": [ -0.100729603883342, 51.495777047270742 ] } },
{ "type": "Feature", "properties": { "Name": "Elm Park Station", "description": "Elm Park Station, London Underground Ltd., The Broadway, Hornchurch, Essex, RM12 4RW" }, "geometry": { "type": "Point", "coordinates": [ 0.199180459239238, 51.549801253986864 ] } },
{ "type": "Feature", "properties": { "Name": "Embankment Station", "description": "Embankment Station, London Underground Ltd., Villiers St, London, WC2N 6NS" }, "geometry": { "type": "Point", "coordinates": [ -0.122360215814179, 51.507241796748396 ] } },
{ "type": "Feature", "properties": { "Name": "Epping Station", "description": "Epping Station, London Underground Ltd., Station Rd, Epping, Essex, CM16 4HW" }, "geometry": { "type": "Point", "coordinates": [ 0.113866915583571, 51.693624607565482 ] } },
{ "type": "Feature", "properties": { "Name": "Euston Station", "description": "Euston Underground Station, London Underground Ltd., Eversholt St, London, NW1 2DU" }, "geometry": { "type": "Point", "coordinates": [ -0.133289718799316, 51.528596260899462 ] } },
{ "type": "Feature", "properties": { "Name": "Euston Square Station", "description": "Euston Square Station, London Underground Ltd., Euston Rd, London, NW1 2BN" }, "geometry": { "type": "Point", "coordinates": [ -0.13583614069432, 51.525561006016105 ] } },
{ "type": "Feature", "properties": { "Name": "Fairlop Station", "description": "Fairlop Station, London Underground Ltd., Forest Rd, Ilford, Essex, IG6 3HD" }, "geometry": { "type": "Point", "coordinates": [ 0.090929226191152, 51.59568093186104 ] } },
{ "type": "Feature", "properties": { "Name": "Farringdon Station", "description": "Farringdon Station, London Underground Ltd., Cowcross St, London, EC1M 6BY" }, "geometry": { "type": "Point", "coordinates": [ -0.10506525423688, 51.520444754930793 ] } },
{ "type": "Feature", "properties": { "Name": "Finchley Central Station", "description": "Finchley Central Station, London Underground Ltd., Regents Park Road, London, N3 2RY" }, "geometry": { "type": "Point", "coordinates": [ -0.192447107072111, 51.600976420785251 ] } },
{ "type": "Feature", "properties": { "Name": "Finchley Road Station", "description": "Finchley Road Underground Station, London Underground Ltd., Finchley Road, London, NW3 6OP" }, "geometry": { "type": "Point", "coordinates": [ -0.180494175915812, 51.547064834336794 ] } },
{ "type": "Feature", "properties": { "Name": "Finsbury Park Station", "description": "Finsbury Park Underground Station, London Underground Ltd., Wells Terrace, London, N4 3JU" }, "geometry": { "type": "Point", "coordinates": [ -0.106512100282158, 51.564401648484591 ] } },
{ "type": "Feature", "properties": { "Name": "Fulham Broadway Station", "description": "Fulham Broadway Station, London Underground Ltd., Fulham Broadway, London, SW6 1BY" }, "geometry": { "type": "Point", "coordinates": [ -0.194956844603216, 51.48052978429817 ] } },
{ "type": "Feature", "properties": { "Name": "Gants Hill Station", "description": "Gants Hill Station, London Underground Ltd., Cranbrook Rd, Ilford, Essex, IG2 6UD" }, "geometry": { "type": "Point", "coordinates": [ 0.066115533982912, 51.576487548031558 ] } },
{ "type": "Feature", "properties": { "Name": "Gloucester Road Station", "description": "Gloucester Road Station, London Underground Ltd., Gloucester Rd, London, SW7 4SF" }, "geometry": { "type": "Point", "coordinates": [ -0.182989526482897, 51.494239783916477 ] } },
{ "type": "Feature", "properties": { "Name": "Golders Green Station", "description": "Golders Green Station, London Underground Ltd., North End Rd, London, NW11 7RN" }, "geometry": { "type": "Point", "coordinates": [ -0.193993261252232, 51.572221393232802 ] } },
{ "type": "Feature", "properties": { "Name": "Goldhawk Road Station", "description": "Goldhawk Road Station, London Underground Ltd., Goldhawk Rd, London, W12 8EG" }, "geometry": { "type": "Point", "coordinates": [ -0.226748329203583, 51.501952197301271 ] } },
{ "type": "Feature", "properties": { "Name": "Goodge Street Station", "description": "Goodge Street Station, London Underground Ltd., 75 Tottenham Court Rd, London, W1P 9PA" }, "geometry": { "type": "Point", "coordinates": [ -0.134662152092394, 51.520424996045499 ] } },
{ "type": "Feature", "properties": { "Name": "Grange Hill Station", "description": "Grange Hill Station, London Underground Ltd., Manor Rd, Chigwell, Essex, IG7 5QB" }, "geometry": { "type": "Point", "coordinates": [ 0.092146407242702, 51.61334985780146 ] } },
{ "type": "Feature", "properties": { "Name": "Great Portland Street Station", "description": "Great Portland Street Station, London Underground Ltd., Euston Rd, London, NW1" }, "geometry": { "type": "Point", "coordinates": [ -0.143956086447369, 51.523720314628889 ] } },
{ "type": "Feature", "properties": { "Name": "Green Park Station", "description": "Green Park Station, London Underground Ltd., Piccadilly, London, W1V 9HG" }, "geometry": { "type": "Point", "coordinates": [ -0.142927422207874, 51.506850108502306 ] } },
{ "type": "Feature", "properties": { "Name": "Greenford Station", "description": "Greenford Station, London Underground Ltd., Oldfield Lane, Greenford, Middx, UB6 8PX" }, "geometry": { "type": "Point", "coordinates": [ -0.34644414656746, 51.542302026759124 ] } },
{ "type": "Feature", "properties": { "Name": "Hainault Station", "description": "Hainault Station, London Underground Ltd., New North Rd, Ilford, Essex, IG6 3BD" }, "geometry": { "type": "Point", "coordinates": [ 0.093119014044497, 51.603727217978239 ] } },
{ "type": "Feature", "properties": { "Name": "Hampstead Station", "description": "Hampstead Station, London Underground Ltd., Hampstead High St, London, NW3 1QG" }, "geometry": { "type": "Point", "coordinates": [ -0.178219762924765, 51.556688476264434 ] } },
{ "type": "Feature", "properties": { "Name": "Hanger Lane Station", "description": "Hanger Lane Station, London Underground Ltd., Hanger Lane, London, W5 1DL" }, "geometry": { "type": "Point", "coordinates": [ -0.293007522620696, 51.53000640358804 ] } },
{ "type": "Feature", "properties": { "Name": "Hatton Cross Station", "description": "Hatton Cross Station, London Underground Ltd., Great South West Rd, Feltham, Middx, TW6 3PF" }, "geometry": { "type": "Point", "coordinates": [ -0.423409349454663, 51.466614173462759 ] } },
{ "type": "Feature", "properties": { "Name": "Heathrow Terminal 4 Station", "description": "Heathrow T4 Station, London Underground Ltd., Hthrw Airport complex, Trmnl 4, Hounslow, Middx, TW6 3YD" }, "geometry": { "type": "Point", "coordinates": [ -0.446058766977937, 51.458553104092005 ] } },
{ "type": "Feature", "properties": { "Name": "Hendon Central Station", "description": "Hendon Central Station, London Underground Ltd., Queens Rd, London, NW4 3AS" }, "geometry": { "type": "Point", "coordinates": [ -0.226496207803293, 51.583293830072002 ] } },
{ "type": "Feature", "properties": { "Name": "High Barnet Station", "description": "High Barnet Station, London Underground Ltd., Barnet Hill, Barnet, Herts, EN5 5RP" }, "geometry": { "type": "Point", "coordinates": [ -0.19475102194752, 51.650601170588565 ] } },
{ "type": "Feature", "properties": { "Name": "High Street Kensington Station", "description": "High Street Kensington Station, London Underground Ltd., Kensington High St, London, W8 5SA" }, "geometry": { "type": "Point", "coordinates": [ -0.192503135590811, 51.500673420263205 ] } },
{ "type": "Feature", "properties": { "Name": "Highbury & Islington Station", "description": "Highbury & Islington Underground Station, London Underground Ltd., Holloway Rd, London, N5 1RA" }, "geometry": { "type": "Point", "coordinates": [ -0.103964238784979, 51.546229491737868 ] } },
{ "type": "Feature", "properties": { "Name": "Highgate Station", "description": "Highgate Station, London Underground Ltd., Archway Rd, London, N6" }, "geometry": { "type": "Point", "coordinates": [ -0.146638422561128, 51.577597829618789 ] } },
{ "type": "Feature", "properties": { "Name": "Hillingdon Station", "description": "Hillingdon Station, London Underground Ltd., Long Lane, Hillingdon, Uxbridge, Middlesex, UB10 9NR" }, "geometry": { "type": "Point", "coordinates": [ -0.449926295661859, 51.553716844570936 ] } },
{ "type": "Feature", "properties": { "Name": "Holborn Station", "description": "Holborn Station, London Underground Ltd., Kingsway, London, WC2B 6AA" }, "geometry": { "type": "Point", "coordinates": [ -0.120008849244825, 51.517438783075967 ] } },
{ "type": "Feature", "properties": { "Name": "Holland Park Station", "description": "Holland Park Station, London Underground Ltd., Holland Park Avenue, London, W11 3RB" }, "geometry": { "type": "Point", "coordinates": [ -0.205728672749766, 51.507334043150678 ] } },
{ "type": "Feature", "properties": { "Name": "Holloway Road Station", "description": "Holloway Road Station, London Underground Ltd., Holloway Rd, London, N7 8HS" }, "geometry": { "type": "Point", "coordinates": [ -0.112925632539152, 51.552750537878602 ] } },
{ "type": "Feature", "properties": { "Name": "Hornchurch Station", "description": "Hornchurch Station, London Underground Ltd., Station Lane, Hornchurch, Essex, RM12 6LS" }, "geometry": { "type": "Point", "coordinates": [ 0.219018986707928, 51.554005256006327 ] } },
{ "type": "Feature", "properties": { "Name": "Hounslow Central Station", "description": "Hounslow Central Station, London Underground Ltd., Lampton Rd, Hounslow, Middx, TW3 1JG" }, "geometry": { "type": "Point", "coordinates": [ -0.366922420319065, 51.471083300365436 ] } },
{ "type": "Feature", "properties": { "Name": "Hounslow East Station", "description": "Hounslow East Station, London Underground Ltd., Kingsley Rd, Hounslow, Middx, TW3 4AB" }, "geometry": { "type": "Point", "coordinates": [ -0.35669531824492, 51.473170615833226 ] } },
{ "type": "Feature", "properties": { "Name": "Hounslow West Station", "description": "Hounslow West Station, London Underground Ltd., Bath Rd, Hounslow, Middx, TW3 3DH" }, "geometry": { "type": "Point", "coordinates": [ -0.385731868407532, 51.47303479896572 ] } },
{ "type": "Feature", "properties": { "Name": "Hyde Park Corner Station", "description": "Hyde Park Corner Station, London Underground Ltd., Knightsbridge, London, SW1X 7LY" }, "geometry": { "type": "Point", "coordinates": [ -0.152748811981767, 51.50276041121257 ] } },
{ "type": "Feature", "properties": { "Name": "Ickenham Station", "description": "Ickenham Station, London Underground Ltd., Glebe Avenue, Uxbridge, Middx, UB10 8PD" }, "geometry": { "type": "Point", "coordinates": [ -0.442026555689012, 51.56198474255924 ] } },
{ "type": "Feature", "properties": { "Name": "Kennington Station", "description": "Kennington Station, London Underground Ltd., Kennington Park Rd, London, SE11 4QJ" }, "geometry": { "type": "Point", "coordinates": [ -0.105485152526283, 51.488119530611542 ] } },
{ "type": "Feature", "properties": { "Name": "Kentish Town Station", "description": "Kentish Town Underground Station, London Underground Ltd., Kentish Town Rd, London, NW5 2AA" }, "geometry": { "type": "Point", "coordinates": [ -0.140464192953272, 51.550303762237867 ] } },
{ "type": "Feature", "properties": { "Name": "Kilburn Station", "description": "Kilburn Station, London Underground Ltd., Shootup Hill, London, NW6 7QL" }, "geometry": { "type": "Point", "coordinates": [ -0.204633341254656, 51.546879502456839 ] } },
{ "type": "Feature", "properties": { "Name": "Kilburn Park Station", "description": "Kilburn Park Station, London Underground Ltd., Cambridge Avenue, London, NW6 5AD" }, "geometry": { "type": "Point", "coordinates": [ -0.193965947368527, 51.535069084356998 ] } },
{ "type": "Feature", "properties": { "Name": "Kingsbury Station", "description": "Kingsbury Station, London Underground Ltd., Kingsbury Rd, London, NW9 9EG" }, "geometry": { "type": "Point", "coordinates": [ -0.278799057434067, 51.584756866190325 ] } },
{ "type": "Feature", "properties": { "Name": "Knightsbridge Station", "description": "Knightsbridge Station, London Underground Ltd., Sloane St, London, SW1" }, "geometry": { "type": "Point", "coordinates": [ -0.160507091328832, 51.501551433201136 ] } },
{ "type": "Feature", "properties": { "Name": "Ladbroke Grove Station", "description": "Ladbroke Grove Station, London Underground Ltd., Ladbroke Grove, London, W10 6HJ" }, "geometry": { "type": "Point", "coordinates": [ -0.210861917848587, 51.517188449881736 ] } },
{ "type": "Feature", "properties": { "Name": "Lambeth North Station", "description": "Lambeth North Station, London Underground Ltd., 110 Westminster Bridge Rd, London, SE1 7XG" }, "geometry": { "type": "Point", "coordinates": [ -0.111760270277702, 51.499058148698573 ] } },
{ "type": "Feature", "properties": { "Name": "Lancaster Gate Station", "description": "Lancaster Gate Station, London Underground Ltd., Bayswater Rd, London, W2" }, "geometry": { "type": "Point", "coordinates": [ -0.175428659257817, 51.511821534588613 ] } },
{ "type": "Feature", "properties": { "Name": "Latimer Road Station", "description": "Latimer Road Station, London Underground Ltd., Bramley Rd, London, W10 6SZ" }, "geometry": { "type": "Point", "coordinates": [ -0.217779301792146, 51.513543593897175 ] } },
{ "type": "Feature", "properties": { "Name": "Leicester Square Station", "description": "Leicester Square Station, London Underground Ltd., Cranbourn St, London, WC2H 0AP" }, "geometry": { "type": "Point", "coordinates": [ -0.12823553217276, 51.511221028367203 ] } },
{ "type": "Feature", "properties": { "Name": "Leyton Station", "description": "Leyton Underground Station, London Underground Ltd., High Rd, Leyton, London, E10 5PS" }, "geometry": { "type": "Point", "coordinates": [ -0.005619879781309, 51.556432927054907 ] } },
{ "type": "Feature", "properties": { "Name": "Leytonstone Station", "description": "Leytonstone Station, London Underground Ltd., Church Lane, London, E11 1HE" }, "geometry": { "type": "Point", "coordinates": [ 0.008215047486341, 51.568185263674593 ] } },
{ "type": "Feature", "properties": { "Name": "Liverpool Street Station", "description": "Liverpool Street Underground Station Central, London Underground Ltd., Liverpool Street, London, EC2M 7PP" }, "geometry": { "type": "Point", "coordinates": [ -0.082965709456944, 51.517351230751743 ] } },
{ "type": "Feature", "properties": { "Name": "London Bridge Station", "description": "London Bridge Underground Station, London Underground Ltd., 21 Duke St Hill, London, SE1 2SW" }, "geometry": { "type": "Point", "coordinates": [ -0.086922404191942, 51.505499353249796 ] } },
{ "type": "Feature", "properties": { "Name": "Loughton Station", "description": "Loughton Station, London Underground Ltd., Old Station Rd, Roding Rd, Loughton, Essex, IG10 4PD" }, "geometry": { "type": "Point", "coordinates": [ 0.05531199715457, 51.641512759080584 ] } },
{ "type": "Feature", "properties": { "Name": "Maida Vale Station", "description": "Maida Vale Station, London Underground Ltd., Elgin Avenue, London, W9 1JS" }, "geometry": { "type": "Point", "coordinates": [ -0.185625902229912, 51.529760016810314 ] } },
{ "type": "Feature", "properties": { "Name": "Manor House Station", "description": "Manor House Station, London Underground Ltd., Green Lanes, London, N4 1BZ" }, "geometry": { "type": "Point", "coordinates": [ -0.095712466704881, 51.570756005284366 ] } },
{ "type": "Feature", "properties": { "Name": "Mansion House Station", "description": "Mansion House Station, London Underground Ltd., 38 Cannon St, London, EC4N 6JD" }, "geometry": { "type": "Point", "coordinates": [ -0.094187135312933, 51.512021200956028 ] } },
{ "type": "Feature", "properties": { "Name": "Marble Arch Station", "description": "Marble Arch Station, London Underground Ltd., Oxford St, London, W1R 1DD" }, "geometry": { "type": "Point", "coordinates": [ -0.158438046626587, 51.513543293181172 ] } },
{ "type": "Feature", "properties": { "Name": "Marylebone Station", "description": "Marylebone Underground Station, London Underground Ltd., Harewood Row, London, NW1 6JP" }, "geometry": { "type": "Point", "coordinates": [ -0.163104487142124, 51.522223341970424 ] } },
{ "type": "Feature", "properties": { "Name": "Mile End Station", "description": "Mile End Station, London Underground Ltd., Mile End Rd, London, E3 4DH" }, "geometry": { "type": "Point", "coordinates": [ -0.033404170381106, 51.525091871834483 ] } },
{ "type": "Feature", "properties": { "Name": "Mill Hill East Station", "description": "Mill Hill East Station, London Underground Ltd., Bittacy Hill, London, NW7 1BS" }, "geometry": { "type": "Point", "coordinates": [ -0.209894419946043, 51.608258895239281 ] } },
{ "type": "Feature", "properties": { "Name": "Monument Station", "description": "Monument Station, London Underground Ltd., King William St, London, EC4R 9AA" }, "geometry": { "type": "Point", "coordinates": [ -0.088942732741563, 51.513347819184283 ] } },
{ "type": "Feature", "properties": { "Name": "Moor Park Station", "description": "Moor Park Station, London Underground Ltd., Sandy Lodge Lane, Rickmansworth, Herts, HA6 2JQ." }, "geometry": { "type": "Point", "coordinates": [ -0.432666848603921, 51.62973109047762 ] } },
{ "type": "Feature", "properties": { "Name": "Moorgate Station", "description": "Moorgate Station, London Underground Ltd., Moorfields, London, EC2Y 9AE" }, "geometry": { "type": "Point", "coordinates": [ -0.089006315013091, 51.518367249884619 ] } },
{ "type": "Feature", "properties": { "Name": "Morden Station", "description": "Morden Underground Station, London Underground Ltd., London Rd, Morden, Surrey, SM4 5AZ" }, "geometry": { "type": "Point", "coordinates": [ -0.194790700834515, 51.402336940766872 ] } },
{ "type": "Feature", "properties": { "Name": "Mornington Crescent Station", "description": "Mornington Crescent Station, London Underground Ltd., Eversholt St, London, NW1 2JA" }, "geometry": { "type": "Point", "coordinates": [ -0.1388425299899, 51.534206610602567 ] } },
{ "type": "Feature", "properties": { "Name": "Neasden Station", "description": "Neasden Station, London Underground Ltd., Neasden Lane, London, NW10 1PH" }, "geometry": { "type": "Point", "coordinates": [ -0.249782872822432, 51.553965717461772 ] } },
{ "type": "Feature", "properties": { "Name": "Newbury Park Station", "description": "Newbury Park Station, London Underground Ltd., Eastern Avenue, Ilford, Essex, IG2 7RN" }, "geometry": { "type": "Point", "coordinates": [ 0.090337313681271, 51.575572493610601 ] } },
{ "type": "Feature", "properties": { "Name": "North Acton Station", "description": "North Acton Station, London Underground Ltd., Victoria Rd, London, W3 6UP" }, "geometry": { "type": "Point", "coordinates": [ -0.259737385737795, 51.523365556364134 ] } },
{ "type": "Feature", "properties": { "Name": "North Ealing Station", "description": "North Ealing Station, London Underground Ltd., Station Road, London, W5 3AF" }, "geometry": { "type": "Point", "coordinates": [ -0.289004979762561, 51.517555160358675 ] } },
{ "type": "Feature", "properties": { "Name": "North Greenwich Station", "description": "North Greenwich Station, London Underground Ltd., 5 Millenium Way, London, SE10 0PH" }, "geometry": { "type": "Point", "coordinates": [ 0.003607416938326, 51.500181823992641 ] } },
{ "type": "Feature", "properties": { "Name": "North Harrow Station", "description": "North Harrow Station, London Underground Ltd., Station Rd, North Harrow, Middx, HA2 7SR" }, "geometry": { "type": "Point", "coordinates": [ -0.362223573258194, 51.584791846729885 ] } },
{ "type": "Feature", "properties": { "Name": "Northfields Station", "description": "Northfields Station, London Underground Ltd., Northfield Avenue, London, W13 9QU" }, "geometry": { "type": "Point", "coordinates": [ -0.31415683266497, 51.499276482193579 ] } },
{ "type": "Feature", "properties": { "Name": "Northolt Station", "description": "Northolt Underground Station, London Underground Ltd., Mandeville Rd, Northolt, Middx, UB5 4AA" }, "geometry": { "type": "Point", "coordinates": [ -0.368459834282661, 51.54815043900274 ] } },
{ "type": "Feature", "properties": { "Name": "Northwick Park Station", "description": "Northwick Park Station, London Underground Ltd., Northwick Avenue, Harrow, Middx, HA3 0AT" }, "geometry": { "type": "Point", "coordinates": [ -0.318206356876206, 51.57859284148752 ] } },
{ "type": "Feature", "properties": { "Name": "Northwood Station", "description": "Northwood Station, London Underground Ltd., Station Approach, Green Lane, Northwood, Middx, HA6 2XL" }, "geometry": { "type": "Point", "coordinates": [ -0.423860793851574, 51.611159228903716 ] } },
{ "type": "Feature", "properties": { "Name": "Northwood Hills Station", "description": "Northwood Hills Station, London Underground Ltd., Joel St, Northwood, Middx, HA6 1NZ" }, "geometry": { "type": "Point", "coordinates": [ -0.409298630674161, 51.600494576499997 ] } },
{ "type": "Feature", "properties": { "Name": "Notting Hill Gate Station", "description": "Notting Hill Gate Station, London Underground Ltd., Notting Hill Gate, London, W11 3HT" }, "geometry": { "type": "Point", "coordinates": [ -0.196537685407763, 51.50906353364374 ] } },
{ "type": "Feature", "properties": { "Name": "Oakwood Station", "description": "Oakwood Station, London Underground Ltd., Bramley Rd, London, N14 4UT" }, "geometry": { "type": "Point", "coordinates": [ -0.131841721300937, 51.647583649194111 ] } },
{ "type": "Feature", "properties": { "Name": "Old Street Station", "description": "Old Street Station, London Underground Ltd., Old St, London, EC1V 9NR" }, "geometry": { "type": "Point", "coordinates": [ -0.087549731436463, 51.525601323369813 ] } },
{ "type": "Feature", "properties": { "Name": "Osterley Station", "description": "Osterley Station, London Underground Ltd., Great West Rd, Isleworth, Middx, TW7 4PU" }, "geometry": { "type": "Point", "coordinates": [ -0.351994404645611, 51.480928804588714 ] } },
{ "type": "Feature", "properties": { "Name": "Oval Station", "description": "Oval Station, London Underground Ltd., 318 Kennington Park Rd, London, SE11 4PP" }, "geometry": { "type": "Point", "coordinates": [ -0.112893408798068, 51.482105452338025 ] } },
{ "type": "Feature", "properties": { "Name": "Oxford Circus Station", "description": "Oxford Circus Station, London Underground Ltd., Oxford St, London, W1R 1AB" }, "geometry": { "type": "Point", "coordinates": [ -0.141768983668966, 51.515123799037092 ] } },
{ "type": "Feature", "properties": { "Name": "Paddington Station", "description": "Paddington Underground Stations, London Underground Ltd., Praed St, London, W2" }, "geometry": { "type": "Point", "coordinates": [ -0.175390006010324, 51.515310415793493 ] } },
{ "type": "Feature", "properties": { "Name": "Park Royal Station", "description": "Park Royal Station, London Underground Ltd., Western Avenue, London, W5 3EL" }, "geometry": { "type": "Point", "coordinates": [ -0.284228015904849, 51.526901379245409 ] } },
{ "type": "Feature", "properties": { "Name": "Parsons Green Station", "description": "Parsons Green Station, London Underground Ltd., Parsons Green Lane, London, SW6 4HJ" }, "geometry": { "type": "Point", "coordinates": [ -0.20123465658312, 51.475095330474787 ] } },
{ "type": "Feature", "properties": { "Name": "Perivale Station", "description": "Perivale Station, London Underground Ltd., Horsenden Lane, Greenford, Middx, UB6 8AE" }, "geometry": { "type": "Point", "coordinates": [ -0.323852038492346, 51.536594089926687 ] } },
{ "type": "Feature", "properties": { "Name": "Piccadilly Circus Station", "description": "Piccadilly Circus Station, London Underground Ltd., Piccadilly Circus, London, W1V 9LB" }, "geometry": { "type": "Point", "coordinates": [ -0.134006365558422, 51.510026995270749 ] } },
{ "type": "Feature", "properties": { "Name": "Pimlico Station", "description": "Pimlico Station, London Underground Ltd., Bessborough St, London, SW1V 2JA" }, "geometry": { "type": "Point", "coordinates": [ -0.133748665287791, 51.489193760110517 ] } },
{ "type": "Feature", "properties": { "Name": "Pinner Station", "description": "Pinner Station, London Underground Ltd., Station Approach, Pinner, Middx, HA5 5LZ" }, "geometry": { "type": "Point", "coordinates": [ -0.380919804150349, 51.592857630090862 ] } },
{ "type": "Feature", "properties": { "Name": "Plaistow Station", "description": "Plaistow Station, London Underground Ltd., Plaistow Rd, London, E15" }, "geometry": { "type": "Point", "coordinates": [ 0.01780469869649, 51.531218392483616 ] } },
{ "type": "Feature", "properties": { "Name": "Preston Road Station", "description": "Preston Road Station, London Underground Ltd., Preston Rd, Wembley, Middx, HA3 0PS" }, "geometry": { "type": "Point", "coordinates": [ -0.295256300158968, 51.572037991815023 ] } },
{ "type": "Feature", "properties": { "Name": "Putney Bridge Station", "description": "Putney Bridge Station, London Underground Ltd., Station Approach, London, SW6 3UH" }, "geometry": { "type": "Point", "coordinates": [ -0.208976678487921, 51.467902222271881 ] } },
{ "type": "Feature", "properties": { "Name": "Queensbury Station", "description": "Queensbury Station, London Underground Ltd., Cumberland Rd, Harrow, Middx, HA8 5NP" }, "geometry": { "type": "Point", "coordinates": [ -0.285785681643208, 51.594347148072558 ] } },
{ "type": "Feature", "properties": { "Name": "Queensway Station", "description": "Queensway Station, London Underground Ltd., Bayswater Rd, London, W2 4SS" }, "geometry": { "type": "Point", "coordinates": [ -0.187434461364574, 51.510380051624608 ] } },
{ "type": "Feature", "properties": { "Name": "Ravenscourt Park Station", "description": "Ravenscourt Park Station, London Underground Ltd., Ravenscourt Rd, London, W6 0UG" }, "geometry": { "type": "Point", "coordinates": [ -0.236258353945599, 51.494136531497858 ] } },
{ "type": "Feature", "properties": { "Name": "Rayners Lane Station", "description": "Rayners Lane Station, London Underground Ltd., Alexandra Avenue, Harrow, Middx" }, "geometry": { "type": "Point", "coordinates": [ -0.371005563517765, 51.57497670388134 ] } },
{ "type": "Feature", "properties": { "Name": "Redbridge Station", "description": "Redbridge Station, London Underground Ltd., Eastern Avenue, Ilford, Essex, IG4 5OQ" }, "geometry": { "type": "Point", "coordinates": [ 0.045423116107576, 51.576301792400692 ] } },
{ "type": "Feature", "properties": { "Name": "Regent's Park Station", "description": "Regent's Park Station, London Underground Ltd., Marylebone Rd, London, NW1 5HA" }, "geometry": { "type": "Point", "coordinates": [ -0.146862634752862, 51.523505503468371 ] } },
{ "type": "Feature", "properties": { "Name": "Rickmansworth Station", "description": "Rickmansworth Station, London Underground Ltd., Station Approach, Rickmansworth, Herts, WD3 1QY" }, "geometry": { "type": "Point", "coordinates": [ -0.473712107018386, 51.640272706988569 ] } },
{ "type": "Feature", "properties": { "Name": "Roding Valley Station", "description": "Roding Valley Station, London Underground Ltd., Station Way, Buckhurst Hill, Essex, IG9 6LN" }, "geometry": { "type": "Point", "coordinates": [ 0.043864415463376, 51.617115241205418 ] } },
{ "type": "Feature", "properties": { "Name": "Rotherhithe Station", "description": "Rotherhithe Station, London Underground Ltd., Brunel Rd, London, SE16 4LF" }, "geometry": { "type": "Point", "coordinates": [ -0.052180998321319, 51.501005694266453 ] } },
{ "type": "Feature", "properties": { "Name": "Royal Oak Station", "description": "Royal Oak Station, London Underground Ltd., Lord Hills Bridge, London, W2 6ET" }, "geometry": { "type": "Point", "coordinates": [ -0.188230043028311, 51.519017120333288 ] } },
{ "type": "Feature", "properties": { "Name": "Ruislip Station", "description": "Ruislip Station, London Underground Ltd., Station Approach, Ruislip, Middx, HA4 8LD" }, "geometry": { "type": "Point", "coordinates": [ -0.42145507401498, 51.571449113222798 ] } },
{ "type": "Feature", "properties": { "Name": "Ruislip Gardens Station", "description": "Ruislip Gardens Station, London Underground Ltd., West End Rd, Ruislip, Middx, HA4 6NF" }, "geometry": { "type": "Point", "coordinates": [ -0.411039284928411, 51.560588503076744 ] } },
{ "type": "Feature", "properties": { "Name": "Ruislip Manor Station", "description": "Ruislip Manor Station, London Underground Ltd., Victoria Rd, Ruislip, Middx, HA4 9AA" }, "geometry": { "type": "Point", "coordinates": [ -0.412345792093259, 51.573187677867047 ] } },
{ "type": "Feature", "properties": { "Name": "Russell Square Station", "description": "Russell Square Station, London Underground Ltd., Bernard St, London, WC1N 1LG" }, "geometry": { "type": "Point", "coordinates": [ -0.124310055647968, 51.522912845083241 ] } },
{ "type": "Feature", "properties": { "Name": "Seven Sisters Station", "description": "Seven Sisters Underground Station, London Underground Ltd., Seven Sisters Rd, London" }, "geometry": { "type": "Point", "coordinates": [ -0.072491881494999, 51.583354184664742 ] } },
{ "type": "Feature", "properties": { "Name": "Shadwell Station", "description": "Shadwell Station, London Underground Ltd., Cable St, London, E1 2QE" }, "geometry": { "type": "Point", "coordinates": [ -0.056904475684454, 51.51122897818464 ] } },
{ "type": "Feature", "properties": { "Name": "Sloane Square Station", "description": "Sloane Square Station, London Underground Ltd., Sloane Square, London, SW1W 8BB" }, "geometry": { "type": "Point", "coordinates": [ -0.156486231690913, 51.492287824097218 ] } },
{ "type": "Feature", "properties": { "Name": "Snaresbrook Station", "description": "Snaresbrook Station, London Underground Ltd., Station Approach, London, E11 1QE" }, "geometry": { "type": "Point", "coordinates": [ 0.02149046243869, 51.580827019760861 ] } },
{ "type": "Feature", "properties": { "Name": "South Ealing Station", "description": "South Ealing Station, London Underground Ltd., South Ealing Rd, London, W5 4QB" }, "geometry": { "type": "Point", "coordinates": [ -0.307018839246706, 51.501367936344181 ] } },
{ "type": "Feature", "properties": { "Name": "South Harrow Station", "description": "South Harrow Station, London Underground Ltd., South Hill Ave, Harrow, Middx, HA2 8HN" }, "geometry": { "type": "Point", "coordinates": [ -0.352211570870426, 51.564677570548547 ] } },
{ "type": "Feature", "properties": { "Name": "South Kensington Station", "description": "South Kensington Station, London Underground Ltd., Pelham St, London, SW7 2NB" }, "geometry": { "type": "Point", "coordinates": [ -0.173922310883827, 51.493999872763688 ] } },
{ "type": "Feature", "properties": { "Name": "South Ruislip Station", "description": "South Ruislip Station, London Underground Ltd., Station Approach, Ruislip, Middx, HA4 6DP" }, "geometry": { "type": "Point", "coordinates": [ -0.398658757175953, 51.556516957971667 ] } },
{ "type": "Feature", "properties": { "Name": "South Wimbledon Station", "description": "South Wimbledon Station, London Underground Ltd., High St, London, SW19 1DE" }, "geometry": { "type": "Point", "coordinates": [ -0.191979094023124, 51.415280365884328 ] } },
{ "type": "Feature", "properties": { "Name": "South Woodford Station", "description": "South Woodford Station, London Underground Ltd., George Lane, London, E18 1JJ" }, "geometry": { "type": "Point", "coordinates": [ 0.0273171337428, 51.591725648273091 ] } },
{ "type": "Feature", "properties": { "Name": "Southfields Station", "description": "Southfields Station, Wimbledon Park Rd, London, SW18" }, "geometry": { "type": "Point", "coordinates": [ -0.206537544055386, 51.444931327018907 ] } },
{ "type": "Feature", "properties": { "Name": "Southgate Station", "description": "Southgate Station, London Underground Ltd., High St, London, N14" }, "geometry": { "type": "Point", "coordinates": [ -0.127758393371046, 51.632319710071862 ] } },
{ "type": "Feature", "properties": { "Name": "Southwark Station", "description": "Southwark Station, London Underground Ltd., 68 - 70 Blackfriars Rd, London, SE1 8NW" }, "geometry": { "type": "Point", "coordinates": [ -0.105091836006184, 51.503843006939 ] } },
{ "type": "Feature", "properties": { "Name": "Stamford Brook Station", "description": "Stamford Brook Station, London Underground Ltd., Goldhawk Rd, London, W6" }, "geometry": { "type": "Point", "coordinates": [ -0.245453795237972, 51.494796231456817 ] } },
{ "type": "Feature", "properties": { "Name": "Stanmore Station", "description": "Stanmore Station, London Underground Ltd., London Rd, Stanmore, Middx, HA7 4PD" }, "geometry": { "type": "Point", "coordinates": [ -0.303108171358638, 51.619618336838599 ] } },
{ "type": "Feature", "properties": { "Name": "Stepney Green Station", "description": "Stepney Green Station, London Underground Ltd., Mile End Rd, London, E1 4AQ" }, "geometry": { "type": "Point", "coordinates": [ -0.046458666350821, 51.521910629627833 ] } },
{ "type": "Feature", "properties": { "Name": "Stockwell Station", "description": "Stockwell Station, London Underground Ltd., Clapham Rd, London, SW9 9AE" }, "geometry": { "type": "Point", "coordinates": [ -0.122909311662103, 51.472166538615753 ] } },
{ "type": "Feature", "properties": { "Name": "Stratford Station", "description": "Stratford Station BR Station St, London, E15 1DE" }, "geometry": { "type": "Point", "coordinates": [ -0.003195329570308, 51.541309265966866 ] } },
{ "type": "Feature", "properties": { "Name": "Sudbury Hill Station", "description": "Sudbury Hill Underground Station, London Underground Ltd., Greenford Rd, Harrow, Middx, HA1 3RA" }, "geometry": { "type": "Point", "coordinates": [ -0.336215632044356, 51.556996189234297 ] } },
{ "type": "Feature", "properties": { "Name": "Sudbury Town Station", "description": "Sudbury Town Station, London Underground Ltd., Station Approach, Wembley, Middx, HA0 2LA" }, "geometry": { "type": "Point", "coordinates": [ -0.315482697033724, 51.550782456897103 ] } },
{ "type": "Feature", "properties": { "Name": "Surrey Quays Station", "description": "Surrey Quays Station, London Underground Ltd., Lower Rd, London, SE16 2UF" }, "geometry": { "type": "Point", "coordinates": [ -0.047514931071433, 51.493193457463171 ] } },
{ "type": "Feature", "properties": { "Name": "Swiss Cottage Station", "description": "Swiss Cottage Station, London Underground Ltd., Finchley Rd, London, NW3 6HY" }, "geometry": { "type": "Point", "coordinates": [ -0.174759253028734, 51.543315320154385 ] } },
{ "type": "Feature", "properties": { "Name": "Temple Station", "description": "Temple Station, London Underground Ltd., Victoria Embankment, London, WC2R 2PH" }, "geometry": { "type": "Point", "coordinates": [ -0.11370308973837, 51.51096998494446 ] } },
{ "type": "Feature", "properties": { "Name": "Theydon Bois Station", "description": "Theydon Bois Station, London Underground Ltd., Coppice Row, Theydon Bois, Essex, CM16 7EU" }, "geometry": { "type": "Point", "coordinates": [ 0.103125376663495, 51.671711317303384 ] } },
{ "type": "Feature", "properties": { "Name": "Tooting Bec Station", "description": "Tooting Bec Station, London Underground Ltd., Balham High Rd, London, SW17 9AH" }, "geometry": { "type": "Point", "coordinates": [ -0.159700539935752, 51.435759628808377 ] } },
{ "type": "Feature", "properties": { "Name": "Tooting Broadway Station", "description": "Tooting Broadway Station, London Underground Ltd., Tooting High St, London, SW17 0SU" }, "geometry": { "type": "Point", "coordinates": [ -0.167976763305219, 51.427435389662655 ] } },
{ "type": "Feature", "properties": { "Name": "Tottenham Court Road Station", "description": "Tottenham Court Road Station, London Underground Ltd., Oxford St, London, W1" }, "geometry": { "type": "Point", "coordinates": [ -0.130870518140944, 51.516209552513857 ] } },
{ "type": "Feature", "properties": { "Name": "Tottenham Hale Station", "description": "Tottenham Hale Underground Station, London Underground Ltd., Station Rd, London, N17 9LR" }, "geometry": { "type": "Point", "coordinates": [ -0.060281116367505, 51.588045301521497 ] } },
{ "type": "Feature", "properties": { "Name": "Totteridge & Whetstone Station", "description": "Totteridge & Whetstone Station, London Underground Ltd., Totteridge Lane, London, N20 9QP" }, "geometry": { "type": "Point", "coordinates": [ -0.179261212923983, 51.630207704762377 ] } },
{ "type": "Feature", "properties": { "Name": "Tower Hill Station", "description": "Tower Hill Station, London Underground Ltd., Trinity Square, London, EC3N 4DJ" }, "geometry": { "type": "Point", "coordinates": [ -0.076353695174605, 51.510065953884123 ] } },
{ "type": "Feature", "properties": { "Name": "Tufnell Park Station", "description": "Tufnell Park Station, London Underground Ltd., Fortress Rd, London, N19 5QB" }, "geometry": { "type": "Point", "coordinates": [ -0.137924881080637, 51.556666819988955 ] } },
{ "type": "Feature", "properties": { "Name": "Turnham Green Station", "description": "Turnham Green Station, London Underground Ltd., Turnham Green Terrace, London, W4 1LR" }, "geometry": { "type": "Point", "coordinates": [ -0.254532982987943, 51.495111725298166 ] } },
{ "type": "Feature", "properties": { "Name": "Turnpike Lane Station", "description": "Turnpike Lane Station, London Underground Ltd., Westbury Avenue, London, N15 3NX" }, "geometry": { "type": "Point", "coordinates": [ -0.102792275055815, 51.590296770154758 ] } },
{ "type": "Feature", "properties": { "Name": "Upminster Station", "description": "Upminster Station BR Station Rd, Upminster, Essex, RM14 2TD" }, "geometry": { "type": "Point", "coordinates": [ 0.251087116066801, 51.55888907616999 ] } },
{ "type": "Feature", "properties": { "Name": "Upminster Bridge Station", "description": "Upminster Bridge Station, London Underground Ltd., Upminster Rd, Hornchurch, Essex, RM12 6PL" }, "geometry": { "type": "Point", "coordinates": [ 0.23577122039992, 51.558750507947337 ] } },
{ "type": "Feature", "properties": { "Name": "Upney Station", "description": "Upney Station, London Underground Ltd., Upney Lane, Barking, Essex, IG11 9LS" }, "geometry": { "type": "Point", "coordinates": [ 0.101565625591422, 51.538335312488272 ] } },
{ "type": "Feature", "properties": { "Name": "Upton Park Station", "description": "Upton Park Station, London Underground Ltd., Green St, London, E13 9AP" }, "geometry": { "type": "Point", "coordinates": [ 0.035273180129165, 51.535233303921103 ] } },
{ "type": "Feature", "properties": { "Name": "Uxbridge Station", "description": "Uxbridge Station, London Underground Ltd., High St, Uxbridge, Middx, UB8 1JZ" }, "geometry": { "type": "Point", "coordinates": [ -0.478139472136282, 51.546496370460567 ] } },
{ "type": "Feature", "properties": { "Name": "Vauxhall Station", "description": "Vauxhall Underground Station, London Underground Ltd., Vauxhall Cross, London, SE1" }, "geometry": { "type": "Point", "coordinates": [ -0.123748951030591, 51.485733376040272 ] } },
{ "type": "Feature", "properties": { "Name": "Victoria Station", "description": "Victoria Underground Station, London Underground Ltd., Victoria St, London, SW1E 5ND" }, "geometry": { "type": "Point", "coordinates": [ -0.143844854340145, 51.496342174730998 ] } },
{ "type": "Feature", "properties": { "Name": "Walthamstow Central Station", "description": "Walthamstow Central Station BR Hoe St, London, E17 7LP" }, "geometry": { "type": "Point", "coordinates": [ -0.019918639025008, 51.582954705002571 ] } },
{ "type": "Feature", "properties": { "Name": "Wanstead Station", "description": "Wanstead Underground Station, London Underground Ltd., The Green, London, E11 2NT" }, "geometry": { "type": "Point", "coordinates": [ 0.028745919335254, 51.575521336921071 ] } },
{ "type": "Feature", "properties": { "Name": "Wapping Station", "description": "Wapping Station, London Underground Ltd., Wapping High St, London, E1 9NQ" }, "geometry": { "type": "Point", "coordinates": [ -0.055846250896648, 51.504268283481814 ] } },
{ "type": "Feature", "properties": { "Name": "Warren Street Station", "description": "Warren Street Station, London Underground Ltd., Tottenham Court Rd, London, NW1 3AA" }, "geometry": { "type": "Point", "coordinates": [ -0.138272313383213, 51.52451151754795 ] } },
{ "type": "Feature", "properties": { "Name": "Warwick Avenue Station", "description": "Warwick Avenue Station, London Underground Ltd., Warwick Avenue, London, W9 2PT" }, "geometry": { "type": "Point", "coordinates": [ -0.183678270688915, 51.523272522746112 ] } },
{ "type": "Feature", "properties": { "Name": "Waterloo Station", "description": "Waterloo Underground Station, London Underground Ltd., York Rd, London, SE1 7ND" }, "geometry": { "type": "Point", "coordinates": [ -0.114069435807659, 51.503502207173682 ] } },
{ "type": "Feature", "properties": { "Name": "Watford Station", "description": "Watford Station, London Underground Ltd., Cassiobury Park Avenue, Watford, Herts, WD1 7LE" }, "geometry": { "type": "Point", "coordinates": [ -0.417280631945958, 51.65742097190649 ] } },
{ "type": "Feature", "properties": { "Name": "Wembley Park Station", "description": "Wembley Park Station, London Underground Ltd., Bridge Road, Wembley, Middlesex, HA9 9AA" }, "geometry": { "type": "Point", "coordinates": [ -0.279251008726512, 51.563260483955112 ] } },
{ "type": "Feature", "properties": { "Name": "West Acton Station", "description": "West Acton Station, London Underground Ltd., Station Parade, London, W3 6UP" }, "geometry": { "type": "Point", "coordinates": [ -0.280993289991878, 51.517860586187879 ] } },
{ "type": "Feature", "properties": { "Name": "West Brompton Station", "description": "West Brompton Station, London Underground Ltd., Old Brompton Rd, London, SW5 9JX" }, "geometry": { "type": "Point", "coordinates": [ -0.195540834373957, 51.487256950006746 ] } },
{ "type": "Feature", "properties": { "Name": "West Finchley Station", "description": "West Finchley Station, London Underground Ltd., Nether Street, London, N3 1NT" }, "geometry": { "type": "Point", "coordinates": [ -0.188468869728233, 51.609485709772599 ] } },
{ "type": "Feature", "properties": { "Name": "West Ham Station", "description": "West Ham Underground Station, London Underground Ltd., Manor Rd, London, E15 3BN" }, "geometry": { "type": "Point", "coordinates": [ 0.005039507096672, 51.528181772941785 ] } },
{ "type": "Feature", "properties": { "Name": "West Hampstead Station", "description": "West Hampstead Underground Station, London Underground Ltd., West End Lane, London, NW6 2LX" }, "geometry": { "type": "Point", "coordinates": [ -0.190749850256434, 51.546701979094905 ] } },
{ "type": "Feature", "properties": { "Name": "West Harrow Station", "description": "West Harrow Station, London Underground Ltd., Vaughan Rd, Harrow, Middx, HA1 4HE" }, "geometry": { "type": "Point", "coordinates": [ -0.352920630985434, 51.579778193709345 ] } },
{ "type": "Feature", "properties": { "Name": "West Kensington Station", "description": "West Kensington Station, London Underground Ltd., North End Rd, London, W14 9NL" }, "geometry": { "type": "Point", "coordinates": [ -0.206477114705301, 51.490491685732103 ] } },
{ "type": "Feature", "properties": { "Name": "West Ruislip Station", "description": "West Ruislip Station, London Underground Ltd., Ickenham Rd, West Ruislip, Middlesex, HA4 7DW" }, "geometry": { "type": "Point", "coordinates": [ -0.437886436759924, 51.569528862920428 ] } },
{ "type": "Feature", "properties": { "Name": "Westbourne Park Station", "description": "Westbourne Park Station, London Underground Ltd., Western Rd, London, W11 1AB" }, "geometry": { "type": "Point", "coordinates": [ -0.200883771467904, 51.520920849526007 ] } },
{ "type": "Feature", "properties": { "Name": "Westminster Station", "description": "Westminster Station, London Underground Ltd., Bridge St, London, SW1A 2JR" }, "geometry": { "type": "Point", "coordinates": [ -0.124818265200699, 51.501084583446463 ] } },
{ "type": "Feature", "properties": { "Name": "White City Station", "description": "White City Station, London Underground Ltd., Wood Lane, London, W12 7RH" }, "geometry": { "type": "Point", "coordinates": [ -0.224254319227985, 51.511978113587034 ] } },
{ "type": "Feature", "properties": { "Name": "Whitechapel Station", "description": "Whitechapel Station, London Underground Ltd., 277 Whitechapel Rd, London, E1 1BY" }, "geometry": { "type": "Point", "coordinates": [ -0.059984982962259, 51.519455246890793 ] } },
{ "type": "Feature", "properties": { "Name": "Willesden Green Station", "description": "Willesden Green Station, London Underground Ltd., Walm Lane, London, NW2 4QT" }, "geometry": { "type": "Point", "coordinates": [ -0.222410152080799, 51.549308888247985 ] } },
{ "type": "Feature", "properties": { "Name": "Wimbledon Park Station", "description": "Wimbledon Park Station, Arthur Rd, London, SW19" }, "geometry": { "type": "Point", "coordinates": [ -0.199595272173123, 51.434464186025437 ] } },
{ "type": "Feature", "properties": { "Name": "Wood Green Station", "description": "Wood Green Station, London Underground Ltd., High Rd, Wood Green, London, N22 4HH" }, "geometry": { "type": "Point", "coordinates": [ -0.109626380548446, 51.59747603130841 ] } },
{ "type": "Feature", "properties": { "Name": "Woodford Station", "description": "Woodford Station, London Underground Ltd., Snakes Lane, Woodford Green, Essex, IG8 7QE" }, "geometry": { "type": "Point", "coordinates": [ 0.034037144154079, 51.60703336518101 ] } },
{ "type": "Feature", "properties": { "Name": "Woodside Park Station", "description": "Woodside Park Station, London Underground Ltd., Woodside Park Rd, London, N12 8SE" }, "geometry": { "type": "Point", "coordinates": [ -0.185421027508839, 51.617811407382945 ] } },
{ "type": "Feature", "properties": { "Name": "All Saints Station", "description": "Poplar, London, E14 0EH" }, "geometry": { "type": "Point", "coordinates": [ -0.012751749577122, 51.511010078082435 ] } },
{ "type": "Feature", "properties": { "Name": "Beckton Station", "description": "" }, "geometry": { "type": "Point", "coordinates": [ 0.060942442359962, 51.515133282604729 ] } },
{ "type": "Feature", "properties": { "Name": "Beckton Park Station", "description": "Sidcup, London, E6 5NE" }, "geometry": { "type": "Point", "coordinates": [ 0.054897746701542, 51.508943792676583 ] } },
{ "type": "Feature", "properties": { "Name": "Blackwall Station", "description": "Poplar, London, E14 9QB" }, "geometry": { "type": "Point", "coordinates": [ -0.007108496961494, 51.508216114618392 ] } },
{ "type": "Feature", "properties": { "Name": "Bow Church Station", "description": "Bow, London, E3 4DS" }, "geometry": { "type": "Point", "coordinates": [ -0.020691424393872, 51.527333106708156 ] } },
{ "type": "Feature", "properties": { "Name": "Bromley-By-Bow Station", "description": "Blackwall Tunnel Northern Approach, London, E3 3JJ" }, "geometry": { "type": "Point", "coordinates": [ -0.011661937058286, 51.524769937557338 ] } },
{ "type": "Feature", "properties": { "Name": "Crossharbour & London Arena Station", "description": "" }, "geometry": { "type": "Point", "coordinates": [ -0.014614325661386, 51.495698374116301 ] } },
{ "type": "Feature", "properties": { "Name": "Custom House Station", "description": "" }, "geometry": { "type": "Point", "coordinates": [ 0.027684411363851, 51.509543816964381 ] } },
{ "type": "Feature", "properties": { "Name": "Cutty Sark Station", "description": "Greenwich, London, SE10 9ED" }, "geometry": { "type": "Point", "coordinates": [ -0.010858772708087, 51.481694371850814 ] } },
{ "type": "Feature", "properties": { "Name": "Cyprus Station", "description": "" }, "geometry": { "type": "Point", "coordinates": [ 0.063538519717123, 51.508791930274768 ] } },
{ "type": "Feature", "properties": { "Name": "Deptford Bridge Station", "description": "" }, "geometry": { "type": "Point", "coordinates": [ -0.021550621322945, 51.474284721273506 ] } },
{ "type": "Feature", "properties": { "Name": "Devons Road Station", "description": "London, E3 3PJ" }, "geometry": { "type": "Point", "coordinates": [ -0.017224616322978, 51.522175080544791 ] } },
{ "type": "Feature", "properties": { "Name": "East India Station", "description": "Poplar, London, E14 2EB" }, "geometry": { "type": "Point", "coordinates": [ -0.002748663563422, 51.50904124910798 ] } },
{ "type": "Feature", "properties": { "Name": "Edgware Road Bakerloo Station", "description": "London, W2 1DX" }, "geometry": { "type": "Point", "coordinates": [ -0.170135073011915, 51.520183893831998 ] } },
{ "type": "Feature", "properties": { "Name": "Edgware Road Circle Station", "description": "Chapel St, Marylebone, London, NW1 5DH" }, "geometry": { "type": "Point", "coordinates": [ -0.167666130737584, 51.519920474367346 ] } },
{ "type": "Feature", "properties": { "Name": "Elverson Road Station", "description": "" }, "geometry": { "type": "Point", "coordinates": [ -0.017467307436164, 51.468819427590319 ] } },
{ "type": "Feature", "properties": { "Name": "Gallions Reach Station", "description": "" }, "geometry": { "type": "Point", "coordinates": [ 0.072220032947865, 51.509538091545025 ] } },
{ "type": "Feature", "properties": { "Name": "Greenwich Station", "description": "" }, "geometry": { "type": "Point", "coordinates": [ -0.014198816568398, 51.477757816350248 ] } },
{ "type": "Feature", "properties": { "Name": "Gunnersbury Station", "description": "Chiswick, London, W4 4AN" }, "geometry": { "type": "Point", "coordinates": [ -0.275175034795658, 51.491793104326042 ] } },
{ "type": "Feature", "properties": { "Name": "Hammersmith Station", "description": "W6 8AB" }, "geometry": { "type": "Point", "coordinates": [ -0.224930071064953, 51.493497772006556 ] } },
{ "type": "Feature", "properties": { "Name": "Hammersmith (D & P) Station", "description": "W6 8AB" }, "geometry": { "type": "Point", "coordinates": [ -0.222401730524214, 51.492569079748954 ] } },
{ "type": "Feature", "properties": { "Name": "Harlesden Station", "description": "NW10 7AA" }, "geometry": { "type": "Point", "coordinates": [ -0.257502755154928, 51.536192910154739 ] } },
{ "type": "Feature", "properties": { "Name": "Harrow & Wealdstone Station", "description": "HA3 5BP" }, "geometry": { "type": "Point", "coordinates": [ -0.335231166241642, 51.592208827964882 ] } },
{ "type": "Feature", "properties": { "Name": "Harrow on the Hill Station", "description": "" }, "geometry": { "type": "Point", "coordinates": [ -0.337015904256827, 51.579328867281141 ] } },
{ "type": "Feature", "properties": { "Name": "Heathrow Terminals 1, 2, 3 Station", "description": "TW6 1JH" }, "geometry": { "type": "Point", "coordinates": [ -0.452439130961683, 51.471219210060411 ] } },
{ "type": "Feature", "properties": { "Name": "Heron Quays Station", "description": "" }, "geometry": { "type": "Point", "coordinates": [ -0.021744064999687, 51.503067915299191 ] } },
{ "type": "Feature", "properties": { "Name": "Island Gardens Station", "description": "" }, "geometry": { "type": "Point", "coordinates": [ -0.009489509781986, 51.486671636732005 ] } },
{ "type": "Feature", "properties": { "Name": "Kensal Green Station", "description": "HA10 5JT" }, "geometry": { "type": "Point", "coordinates": [ -0.224716964703164, 51.530457666116988 ] } },
{ "type": "Feature", "properties": { "Name": "Kensington (Olympia) Station", "description": "W14 0NE" }, "geometry": { "type": "Point", "coordinates": [ -0.210382523117471, 51.497809167384908 ] } },
{ "type": "Feature", "properties": { "Name": "Kenton Station", "description": "HA3 0AZ" }, "geometry": { "type": "Point", "coordinates": [ -0.317164405857979, 51.581788462601409 ] } },
{ "type": "Feature", "properties": { "Name": "Kew Gardens Station", "description": "TW9 3BZ" }, "geometry": { "type": "Point", "coordinates": [ -0.285252328214689, 51.477029930152852 ] } },
{ "type": "Feature", "properties": { "Name": "King's Cross St. Pancras Station", "description": "N1 9AL" }, "geometry": { "type": "Point", "coordinates": [ -0.123857948142453, 51.530397237917526 ] } },
{ "type": "Feature", "properties": { "Name": "Lewisham Station", "description": "" }, "geometry": { "type": "Point", "coordinates": [ -0.014706587477353, 51.466074537491664 ] } },
{ "type": "Feature", "properties": { "Name": "Limehouse Station", "description": "" }, "geometry": { "type": "Point", "coordinates": [ -0.039712576574314, 51.512498517496162 ] } },
{ "type": "Feature", "properties": { "Name": "Mudchute Station", "description": "" }, "geometry": { "type": "Point", "coordinates": [ -0.01509121470163, 51.490364179631122 ] } },
{ "type": "Feature", "properties": { "Name": "New Cross Station", "description": "" }, "geometry": { "type": "Point", "coordinates": [ -0.032594570758595, 51.476674202455733 ] } },
{ "type": "Feature", "properties": { "Name": "New Cross Gate Station", "description": "" }, "geometry": { "type": "Point", "coordinates": [ -0.040299579158886, 51.475337384701447 ] } },
{ "type": "Feature", "properties": { "Name": "North Wembley Station", "description": "HA9 7NT" }, "geometry": { "type": "Point", "coordinates": [ -0.304155735382629, 51.562490285575436 ] } },
{ "type": "Feature", "properties": { "Name": "Poplar Station", "description": "" }, "geometry": { "type": "Point", "coordinates": [ -0.017228773736863, 51.507488443277033 ] } },
{ "type": "Feature", "properties": { "Name": "Prince Regent Station", "description": "" }, "geometry": { "type": "Point", "coordinates": [ 0.033295484514232, 51.509320665460962 ] } },
{ "type": "Feature", "properties": { "Name": "Pudding Mill Lane Station", "description": "" }, "geometry": { "type": "Point", "coordinates": [ -0.013174228379466, 51.534400840867903 ] } },
{ "type": "Feature", "properties": { "Name": "Queen's Park Station", "description": "" }, "geometry": { "type": "Point", "coordinates": [ -0.204704090234203, 51.534100903446934 ] } },
{ "type": "Feature", "properties": { "Name": "Richmond Station", "description": "" }, "geometry": { "type": "Point", "coordinates": [ -0.301754217686892, 51.463159640859743 ] } },
{ "type": "Feature", "properties": { "Name": "Royal Albert Station", "description": "" }, "geometry": { "type": "Point", "coordinates": [ 0.046216593557987, 51.508196344367043 ] } },
{ "type": "Feature", "properties": { "Name": "Royal Victoria Station", "description": "" }, "geometry": { "type": "Point", "coordinates": [ 0.018078557359542, 51.509062110622175 ] } },
{ "type": "Feature", "properties": { "Name": "Shepherd's Bush Central Station", "description": "" }, "geometry": { "type": "Point", "coordinates": [ -0.226305459017775, 51.505560868490754 ] } },
{ "type": "Feature", "properties": { "Name": "Shepherd's Bush Hammersmith & City Station", "description": "" }, "geometry": { "type": "Point", "coordinates": [ -0.226305459017775, 51.505560868490754 ] } },
{ "type": "Feature", "properties": { "Name": "South Kenton Station", "description": "" }, "geometry": { "type": "Point", "coordinates": [ -0.308588675020215, 51.570171686871362 ] } },
{ "type": "Feature", "properties": { "Name": "South Quay Station", "description": "" }, "geometry": { "type": "Point", "coordinates": [ -0.019101694079594, 51.500532011008652 ] } },
{ "type": "Feature", "properties": { "Name": "St. James's Park Station", "description": "" }, "geometry": { "type": "Point", "coordinates": [ -0.134183744115532, 51.499345456140375 ] } },
{ "type": "Feature", "properties": { "Name": "St. John's Wood Station", "description": "" }, "geometry": { "type": "Point", "coordinates": [ -0.17417235633673, 51.534564516315328 ] } },
{ "type": "Feature", "properties": { "Name": "St. Paul's Station", "description": "" }, "geometry": { "type": "Point", "coordinates": [ -0.097573654477604, 51.514801296733296 ] } },
{ "type": "Feature", "properties": { "Name": "Stonebridge Park Station", "description": "" }, "geometry": { "type": "Point", "coordinates": [ -0.275409247579834, 51.543922285834711 ] } },
{ "type": "Feature", "properties": { "Name": "Tower Gateway Station", "description": "" }, "geometry": { "type": "Point", "coordinates": [ -0.074530960965561, 51.510566638763081 ] } },
{ "type": "Feature", "properties": { "Name": "Wembley Central Station", "description": "" }, "geometry": { "type": "Point", "coordinates": [ -0.296859445373196, 51.552329965977997 ] } },
{ "type": "Feature", "properties": { "Name": "West India Quay Station", "description": "" }, "geometry": { "type": "Point", "coordinates": [ -0.020148081137072, 51.506638439327858 ] } },
{ "type": "Feature", "properties": { "Name": "Westferry Station", "description": "" }, "geometry": { "type": "Point", "coordinates": [ -0.025791956499848, 51.509431782335305 ] } },
{ "type": "Feature", "properties": { "Name": "Willesden Junction Station", "description": "" }, "geometry": { "type": "Point", "coordinates": [ -0.244288894517035, 51.532191497103639 ] } },
{ "type": "Feature", "properties": { "Name": "Wimbledon Station", "description": "" }, "geometry": { "type": "Point", "coordinates": [ -0.206381586903592, 51.421383719531768 ] } }
]
}
